{
  "hospitals": [
    {
      "id": 1,
      "name": "Apollo Hospitals, Hyderabad",
      "type": "Multi-Specialty",
      "specialties": ["Cardiology", "Oncology", "Neurology", "Orthopedics"],
      "location": {
        "city": "Hyderabad",
        "state": "Telangana",
        "coordinates": [17.3850, 78.4867],
        "address": "Jubilee Hills, Hyderabad, Telangana 500033"
      },
      "distance": 2.1,
      "beds": [
        {"type": "ICU", "available": 15, "total": 20},
        {"type": "General", "available": 45, "total": 60},
        {"type": "Maternity", "available": 12, "total": 15},
        {"type": "Emergency", "available": 8, "total": 10}
      ],
      "facilities": ["MRI", "CT Scan", "Blood Bank", "Pharmacy", "Ambulance"],
      "rating": 4.5,
      "phone": "+91-40-6060-1066",
      "status": "Available"
    },
    {
      "id": 2,
      "name": "Fortis Healthcare, Secunderabad",
      "type": "Super Specialty",
      "specialties": ["Cardiac Surgery", "Transplant", "Cancer Care", "Pediatrics"],
      "location": {
        "city": "Hyderabad",
        "state": "Telangana",
        "coordinates": [17.4399, 78.4983],
        "address": "Secunderabad, Hyderabad, Telangana 500003"
      },
      "distance": 3.2,
      "beds": [
        {"type": "ICU", "available": 8, "total": 12},
        {"type": "General", "available": 25, "total": 35},
        {"type": "Maternity", "available": 6, "total": 8},
        {"type": "Emergency", "available": 5, "total": 7}
      ],
      "facilities": ["Cath Lab", "Dialysis", "ICU", "Blood Bank", "Pharmacy"],
      "rating": 4.3,
      "phone": "+91-40-4567-4567",
      "status": "Available"
    },
    {
      "id": 3,
      "name": "Yashoda Hospitals, Somajiguda",
      "type": "Multi-Specialty",
      "specialties": ["Cardiology", "Neurology", "Gastroenterology", "Urology"],
      "location": {
        "city": "Hyderabad",
        "state": "Telangana",
        "coordinates": [17.4065, 78.4772],
        "address": "Somajiguda, Hyderabad, Telangana 500082"
      },
      "distance": 1.8,
      "beds": [
        {"type": "ICU", "available": 12, "total": 18},
        {"type": "General", "available": 38, "total": 50},
        {"type": "Maternity", "available": 10, "total": 12},
        {"type": "Emergency", "available": 6, "total": 8}
      ],
      "facilities": ["MRI", "CT Scan", "Laboratory", "Pharmacy", "Ambulance"],
      "rating": 4.4,
      "phone": "+91-40-2345-6789",
      "status": "Available"
    },
    {
      "id": 4,
      "name": "KIMS Hospitals, Secunderabad",
      "type": "Super Specialty",
      "specialties": ["Cardiac Surgery", "Neurosurgery", "Orthopedics", "Oncology"],
      "location": {
        "city": "Hyderabad",
        "state": "Telangana",
        "coordinates": [17.4500, 78.5000],
        "address": "Secunderabad, Hyderabad, Telangana 500003"
      },
      "distance": 4.1,
      "beds": [
        {"type": "ICU", "available": 6, "total": 10},
        {"type": "General", "available": 20, "total": 30},
        {"type": "Maternity", "available": 4, "total": 6},
        {"type": "Emergency", "available": 4, "total": 6}
      ],
      "facilities": ["Cath Lab", "MRI", "Blood Bank", "Pharmacy", "Ambulance"],
      "rating": 4.2,
      "phone": "+91-40-1234-5678",
      "status": "Limited"
    },
    {
      "id": 5,
      "name": "Continental Hospitals, Gachibowli",
      "type": "Multi-Specialty",
      "specialties": ["Cardiology", "Neurology", "Gastroenterology", "Pulmonology"],
      "location": {
        "city": "Hyderabad",
        "state": "Telangana",
        "coordinates": [17.4400, 78.3500],
        "address": "Gachibowli, Hyderabad, Telangana 500032"
      },
      "distance": 5.5,
      "beds": [
        {"type": "ICU", "available": 10, "total": 15},
        {"type": "General", "available": 30, "total": 40},
        {"type": "Maternity", "available": 8, "total": 10},
        {"type": "Emergency", "available": 5, "total": 7}
      ],
      "facilities": ["CT Scan", "Laboratory", "Blood Bank", "Pharmacy", "Ambulance"],
      "rating": 4.1,
      "phone": "+91-40-9876-5432",
      "status": "Available"
    },
    {
      "id": 6,
      "name": "AIIMS Delhi",
      "type": "Government",
      "specialties": ["All Specialties", "Research", "Medical Education", "Emergency Care"],
      "location": {
        "city": "New Delhi",
        "state": "Delhi",
        "coordinates": [28.5673, 77.2111],
        "address": "Ansari Nagar, New Delhi, Delhi 110029"
      },
      "distance": 780.2,
      "beds": [
        {"type": "ICU", "available": 25, "total": 35},
        {"type": "General", "available": 80, "total": 120},
        {"type": "Maternity", "available": 20, "total": 25},
        {"type": "Emergency", "available": 15, "total": 20}
      ],
      "facilities": ["All Advanced Facilities", "Research Labs", "Blood Bank", "Pharmacy", "Ambulance"],
      "rating": 4.7,
      "phone": "+91-11-2658-8500",
      "status": "Available"
    },
    {
      "id": 7,
      "name": "Tata Memorial Hospital, Mumbai",
      "type": "Cancer Specialty",
      "specialties": ["Oncology", "Radiation Therapy", "Surgical Oncology", "Medical Oncology"],
      "location": {
        "city": "Mumbai",
        "state": "Maharashtra",
        "coordinates": [19.0760, 72.8777],
        "address": "Parel, Mumbai, Maharashtra 400012"
      },
      "distance": 520.3,
      "beds": [
        {"type": "ICU", "available": 8, "total": 12},
        {"type": "General", "available": 35, "total": 50},
        {"type": "Maternity", "available": 0, "total": 0},
        {"type": "Emergency", "available": 6, "total": 8}
      ],
      "facilities": ["Radiation Therapy", "PET Scan", "Blood Bank", "Pharmacy", "Ambulance"],
      "rating": 4.6,
      "phone": "+91-22-2417-7000",
      "status": "Available"
    },
    {
      "id": 8,
      "name": "Narayana Health, Bangalore",
      "type": "Multi-Specialty",
      "specialties": ["Cardiac Surgery", "Neurosurgery", "Orthopedics", "Transplant"],
      "location": {
        "city": "Bangalore",
        "state": "Karnataka",
        "coordinates": [12.9716, 77.5946],
        "address": "Bommasandra, Bangalore, Karnataka 560099"
      },
      "distance": 365.4,
      "beds": [
        {"type": "ICU", "available": 18, "total": 25},
        {"type": "General", "available": 55, "total": 75},
        {"type": "Maternity", "available": 12, "total": 15},
        {"type": "Emergency", "available": 10, "total": 12}
      ],
      "facilities": ["Cath Lab", "MRI", "CT Scan", "Blood Bank", "Pharmacy"],
      "rating": 4.4,
      "phone": "+91-80-6750-6750",
      "status": "Available"
    },
    {
      "id": 9,
      "name": "Christian Medical College, Vellore",
      "type": "Multi-Specialty",
      "specialties": ["All Specialties", "Medical Education", "Research", "Rural Health"],
      "location": {
        "city": "Vellore",
        "state": "Tamil Nadu",
        "coordinates": [12.9202, 79.1500],
        "address": "Vellore, Tamil Nadu 632004"
      },
      "distance": 285.7,
      "beds": [
        {"type": "ICU", "available": 20, "total": 30},
        {"type": "General", "available": 70, "total": 100},
        {"type": "Maternity", "available": 15, "total": 20},
        {"type": "Emergency", "available": 12, "total": 15}
      ],
      "facilities": ["All Advanced Facilities", "Research Labs", "Blood Bank", "Pharmacy", "Ambulance"],
      "rating": 4.5,
      "phone": "+91-416-228-2010",
      "status": "Available"
    },
    {
      "id": 10,
      "name": "PGIMER Chandigarh",
      "type": "Government",
      "specialties": ["All Specialties", "Medical Education", "Research", "Emergency Care"],
      "location": {
        "city": "Chandigarh",
        "state": "Chandigarh",
        "coordinates": [30.7333, 76.7794],
        "address": "Sector 12, Chandigarh 160012"
      },
      "distance": 890.5,
      "beds": [
        {"type": "ICU", "available": 22, "total": 30},
        {"type": "General", "available": 65, "total": 90},
        {"type": "Maternity", "available": 18, "total": 22},
        {"type": "Emergency", "available": 14, "total": 18}
      ],
      "facilities": ["All Advanced Facilities", "Research Labs", "Blood Bank", "Pharmacy", "Ambulance"],
      "rating": 4.3,
      "phone": "+91-172-275-6000",
      "status": "Available"
    }
  ],
  "trackerSummary": [
    { "id": "t1", "label": "Total Beds Available", "value": 456 },
    { "id": "t2", "label": "Hospitals Near You", "value": 5 },
    { "id": "t3", "label": "Avg ER Wait (mins)", "value": 25 },
    { "id": "t4", "label": "ICU Beds Available", "value": 144 },
    { "id": "t5", "label": "Emergency Beds", "value": 87 }
  ],
  "hospitalTypes": [
    "Multi-Specialty",
    "Super Specialty", 
    "Government",
    "Cancer Specialty",
    "Cardiac Specialty",
    "Orthopedic Specialty",
    "Pediatric Specialty",
    "Maternity Specialty"
  ],
  "specialties": [
    "Cardiology",
    "Neurology",
    "Oncology",
    "Orthopedics",
    "Gastroenterology",
    "Urology",
    "Pulmonology",
    "Cardiac Surgery",
    "Neurosurgery",
    "Transplant",
    "Cancer Care",
    "Pediatrics",
    "Maternity",
    "Emergency Care",
    "All Specialties",
    "Medical Education",
    "Research"
  ],
  "facilities": [
    "MRI",
    "CT Scan",
    "Cath Lab",
    "Dialysis",
    "ICU",
    "Blood Bank",
    "Pharmacy",
    "Ambulance",
    "Laboratory",
    "Radiation Therapy",
    "PET Scan",
    "Research Labs",
    "All Advanced Facilities"
  ],
  "defaultLocation": {
    "city": "Hyderabad",
    "state": "Telangana",
    "coordinates": [17.3850, 78.4867]
  }
}


